[
  {
    "id": 1,
    "name": "Bicentennial Park",
    "description": "Really cool park with a pond, view of the mountains and a big tree.",
    "rating": 4,
    "private": true,
    "address": {
      "street": "1330 Apple Ave",
      "city": "Provo",
      "state": "UT",
      "zip": "84606",
      "country": "USA"
    },
    "coordinates": {
      "longitude": "-111.630672",
      "latitude": "40.214095",
      "sealevel": "1380"
    },
    "tags": {
      "1": "outdoor",
      "2": "park",
      "3": "busy"
    },
    "pics": {
      "1": "img/locations/bicentennial-park-1.jpg",
      "2": "img/locations/bicentennial-park-2.jpg"
    }
  },
  {
    "id": 2,
    "name": "Downtown Provo",
    "description": "Small town brick buildings.",
    "rating": 3,
    "private": false,
    "address": {
      "street": "55 N University Ave",
      "city": "Provo",
      "state": "UT",
      "zip": "84601",
      "country": "USA"
    },
    "coordinates": {
      "longitude": "-111.6586987",
      "latitude": "40.2337245",
      "sealevel": "1397"
    },
    "tags": {
      "1": "outdoor",
      "2": "urban",
      "3": "brick"
    },
    "pics": {
      "1": "img/locations/downtown-provo-1.jpg"
    }
  },
  {
    "id": 3,
    "name": "Murray Park",
    "description": "This place has everything.",
    "rating": 5,
    "private": true,
    "address": {
      "street": "520 E Vine St",
      "city": "Murray",
      "state": "UT",
      "zip": "84107",
      "country": "USA"
    },
    "coordinates": {
      "longitude": "-111.882197",
      "latitude": "40.659328",
      "sealevel": "1309"
    },
    "tags": {
      "1": "outdoor",
      "2": "park",
      "3": "busy",
      "4": "river",
      "5": "gazibo"
    },
    "pics": {
      "1": "img/locations/murray-park-1.jpg",
      "2": "img/locations/murray-park-2.jpg"
    }
  },
  {
    "id": 4,
    "name": "South Fork Park",
    "description": "An awesome park, tucked inside Provo Canyon. Great view of a creek, trees, and mountains!",
    "rating": 4,
    "private": true,
    "address": {
      "street": "745 E 2320",
      "city": "Orem",
      "state": "UT",
      "zip": "84604",
      "country": "USA"
    },
    "coordinates": {
      "longitude": "-111.547376",
      "latitude": "40.348055",
      "sealevel": ""
    },
    "tags": {
      "1": "outdoor",
      "2": "park",
      "3": "busy",
      "4": "creek",
      "5": "canyon",
      "6": "scenic"
    },
    "pics": {
      "1": "img/locations/south-fork-park-1.jpg",
      "2": "img/locations/south-fork-park-2.jpg",
      "3": "img/locations/south-fork-park-3.jpg"
    }
  },
  {
    "id": 5,
    "name": "Provo Castle",
    "description": "Really cool spot for formal pictures, it's like a medieval castle. Be aware it COSTS $20 to shoot here.",
    "rating": 3,
    "private": false,
    "address": {
      "street": "1300 E Center Street",
      "city": "Provo",
      "state": "UT",
      "zip": "84601",
      "country": "USA"
    },
    "coordinates": {
      "longitude": "-111.631596",
      "latitude": "40.234115",
      "sealevel": ""
    },
    "tags": {
      "1": "outdoor",
      "2": "castle",
      "3": "formal",
      "4": "pond"
    },
    "pics": {
      "1": "img/locations/provo-castle-1.jpg",
      "2": "img/locations/provo-castle-2.jpg"
    }
  }
]